Name,Longitude,Latitude,description,image
Yosemite,-119.5383,37.8651,Known for its granite cliffs and massive waterfalls,https://png.pngtree.com/png_detail/18/09/10/pngtree-yosemite-national-park-seven-png-clipart_748474.jpg
Joshua Tree,-115.901,33.8734,Home to the Joshua Tree! Named by Mormon settlers as the tree's unique shape reminded them of a Biblical story in which Joshua reaches his hands up to the sky in prayer.,https://www.nps.gov/jotr/learn/nature/images/JoshuaTrees_LMcAfee.jpg?maxwidth=1200&maxheight=1200&autorotate=false
The Grand Canyon,-112.132706,35.960503,Most spectacular gorge in the world! Carved by the Colorado River with its layers containing records of billions of years of history.,https://travel.home.sndimg.com/content/dam/images/travel/fullset/2012/03/26/8b/grand-canyon-national-park.rend.hgtvcom.616.462.suffix/1491580896674.jpeg
Sequoia National Park,-118.82517,36.49073,Home to the giant sequoias and famous General Sherman tree. General Sherman is the largest known living single-stem tree on Earth by volume.,https://www.travelcaffeine.com/wp-content/uploads/2017/03/sequoia-national-park-trees-upward-sunburst-fisheye.jpg
Denali National Park,-148.9066,63.7314,Highest mountain in North America. Formerly known as Mt. McKinley after an Ohio Senator who had never visited Alaska.,https://i2.wp.com/whalecoastak.org/wp-content/uploads/Alaska-National-Park-Tour.jpg?fit=960%2C640&ssl=1
Death Valley,-117.079408,36.505389,World's hottest temperature average on Earth and high temperature of 57 °C,https://proxy.duckduckgo.com/iu/?u=https%3A%2F%2Fcdn-images-1.medium.com%2Fmax%2F2000%2F1*ly_REGdcD9vSxteplMZGwg.jpeg&f=1
Great Smokey Mountains,-83.549657,35.611931,America's most visited national park!,
Yellow Stone,-110.501932,44.594937,Known for its geyser's and world famous Old Faithful,